City_ID,City,Lat,Lng,Max Temp,Humidity,Cloudiness,Wind Speed,Country,Date
0,nemuro,43.3236,145.575,20.32,67,0,2.6,JP,1726629757
1,edinburgh of the seven seas,-37.0676,-12.3116,10.71,75,100,7.2,SH,1726629759
2,udachny,66.4167,112.4,0.14,66,99,8.01,RU,1726629761
3,lebu,-37.6167,-73.65,7.98,88,100,1.62,CL,1726629762
4,boende,-0.2167,20.8667,22.06,91,53,1.13,CD,1726629763
5,blackmans bay,-43.0167,147.3167,8.74,88,99,0.45,AU,1726629764
6,grytviken,-54.2811,-36.5092,2.06,90,98,9.5,GS,1726629765
7,bataipora,-22.2953,-53.2711,21.42,42,0,5.42,BR,1726629766
8,vorgashor,67.5833,63.95,8.4,89,86,5.01,RU,1726629768
9,mvomero,-6.25,38.6667,20.85,96,26,1.29,TZ,1726629769
10,korla,41.7597,86.1469,25.99,26,96,2.53,CN,1726629770
11,bethel,41.3712,-73.414,17.17,92,0,1.54,US,1726629544
12,hawaiian paradise park,19.5933,-154.9731,25.49,89,100,1.54,US,1726629772
13,kolondieba,11.0882,-6.8926,22.57,93,60,0.92,ML,1726629773
14,carnarvon,-24.8667,113.6333,26.62,33,0,5.38,AU,1726629774
15,rongelap,11.1635,166.8941,28.76,75,50,4.06,MH,1726629776
16,alta,69.9689,23.2717,8.59,86,75,3.09,NO,1726629778
17,keren,15.7778,38.4581,19.44,92,74,1.3,ER,1726629779
18,port augusta,-32.5,137.7667,25.57,9,0,7.63,AU,1726629780
19,mount gambier,-37.8333,140.7667,16.69,55,0,7.46,AU,1726629781
20,port-aux-francais,-49.35,70.2167,4.41,95,98,7.87,TF,1726629783
21,ribeira grande,38.5167,-28.7,22.1,75,24,5.36,PT,1726629784
22,waitangi,-43.9535,-176.5597,8.23,75,94,5.81,NZ,1726629785
23,margaret river,-33.95,115.0667,14.99,70,82,6.29,AU,1726629786
24,at taj,24.2049,23.2857,26.59,30,0,4.49,LY,1726629787
25,yeniseysk,58.4497,92.1703,6.63,97,100,2.28,RU,1726629788
26,iqaluit,63.7506,-68.5145,1.85,93,100,4.63,CA,1726629791
27,hermanus,-34.4187,19.2345,11.0,85,38,5.62,ZA,1726629792
28,jamestown,42.097,-79.2353,17.8,84,0,2.06,US,1726629793
29,bilibino,68.0546,166.4372,2.63,57,100,2.22,RU,1726629794
30,klyuchi,52.2667,79.1667,8.34,55,0,2.88,RU,1726629795
31,mana,5.6592,-53.7767,26.13,87,5,5.3,GF,1726629796
32,albany,42.6001,-73.9662,17.11,71,100,1.06,US,1726629573
33,hithadhoo,-0.6,73.0833,28.41,76,94,5.05,MV,1726629799
34,st. john's,47.5649,-52.7093,17.76,88,75,4.12,CA,1726629772
35,papatowai,-46.5619,169.4708,11.61,73,43,4.87,NZ,1726629801
36,namsos,64.4662,11.4957,13.95,77,100,7.72,NO,1726629802
37,polva,58.0603,27.0694,14.51,69,100,1.09,EE,1726629803
38,vila franca do campo,37.7167,-25.4333,22.23,91,55,3.3,PT,1726629804
39,kingston,17.997,-76.7936,29.53,79,20,5.66,JM,1726629726
40,la paz,-16.5,-68.15,9.76,78,20,3.6,BO,1726629439
41,baihar,22.1,80.55,21.41,98,100,1.16,IN,1726629808
42,bredasdorp,-34.5322,20.0403,7.44,93,9,2.58,ZA,1726629809
43,iskateley,67.6803,53.1512,10.21,89,100,3.37,RU,1726629810
44,puerto natales,-51.7236,-72.4875,-0.64,87,14,1.8,CL,1726629811
45,obo,5.3998,26.4869,19.77,97,28,0.67,CF,1726629812
46,venice,27.0998,-82.4543,27.78,83,7,0.45,US,1726629814
47,noumea,-22.2763,166.4572,20.41,56,97,5.91,NC,1726629815
48,kapuskasing,49.4169,-82.4331,21.0,52,0,4.63,CA,1726629816
49,lazaro cardenas,17.9583,-102.2,28.1,83,90,3.02,MX,1726629817
50,puerto ayora,-0.7393,-90.3518,21.12,84,94,4.88,EC,1726629818
51,saint-pierre,-21.3393,55.4781,19.82,68,0,0.51,RE,1726629819
52,yermentau,51.6214,73.1069,8.11,54,0,1.85,KZ,1726629821
53,ushuaia,-54.8,-68.3,-0.19,80,40,9.77,AR,1726629662
54,adamstown,-25.066,-130.1015,20.54,86,100,4.76,PN,1726629823
55,anadyr,64.75,177.4833,6.28,81,75,3.0,RU,1726629824
56,san salvo,42.0433,14.7272,16.16,81,55,1.92,IT,1726629825
57,manokwari,-0.8667,134.0833,29.3,70,77,6.23,ID,1726629826
58,vila velha,-20.3297,-40.2925,21.08,86,40,6.17,BR,1726629124
59,colonia,50.9333,6.95,14.42,89,96,1.54,DE,1726629829
60,manga,11.6636,-1.0731,24.23,90,100,2.74,BF,1726629830
61,nar'yan-mar,67.6713,53.087,10.17,90,100,3.3,RU,1726629831
62,polyarnyy,69.1989,33.4478,9.54,88,100,2.48,RU,1726629832
63,hamilton,39.1834,-84.5333,22.27,67,20,1.54,US,1726629549
64,choma,-16.8065,26.9531,18.19,36,0,2.75,ZM,1726629647
65,maloye ganyushkino,46.6,49.2667,11.32,39,0,4.65,KZ,1726629837
66,nayudupet,13.9,79.9,31.49,48,37,6.29,IN,1726629838
67,tiksi,71.6872,128.8694,0.54,76,86,8.88,RU,1726629839
68,college,64.8569,-147.8028,11.99,65,75,3.09,US,1726629840
69,qaqortoq,60.7167,-46.0333,3.5,79,26,1.54,GL,1726629841
70,whitehorse,60.7161,-135.0538,10.57,55,75,5.14,CA,1726629843
71,egilsstadir,65.2653,-14.3948,12.95,76,75,5.66,IS,1726629844
72,talcahuano,-36.7167,-73.1167,9.82,93,75,1.54,CL,1726629845
73,ola,59.5833,151.2833,8.42,60,32,1.91,RU,1726629846
74,sitka,57.0531,-135.33,13.94,72,40,4.12,US,1726629848
75,petropavlovsk-kamchatsky,53.0452,158.6483,12.33,71,75,1.0,RU,1726629850
76,chonchi,-42.6128,-73.8092,7.84,98,100,0.87,CL,1726629851
77,keflavik,64.0049,-22.5624,10.24,100,100,8.23,IS,1726629852
78,tralee,52.2704,-9.7026,9.9,94,5,2.32,IE,1726629853
79,saipan,15.1355,145.701,31.39,74,40,0.0,MP,1726629855
80,ilulissat,69.2167,-51.1,1.01,86,100,0.0,GL,1726629857
81,wailua homesteads,22.0669,-159.378,27.44,79,20,6.17,US,1726629858
82,arraial do cabo,-22.9661,-42.0278,21.32,73,0,4.8,BR,1726629752
83,olonkinbyen,70.9221,-8.7187,3.53,98,100,1.9,SJ,1726629860
84,utrik,11.2278,169.8474,28.95,73,51,7.19,MH,1726629862
85,franceville,-1.6333,13.5836,22.01,92,37,1.28,GA,1726629864
86,muisne,0.6,-80.0333,24.19,84,100,3.42,EC,1726629865
87,lobamba,-26.4667,31.2,16.41,92,56,1.86,SZ,1726629866
88,porto novo,6.4965,2.6036,24.09,92,100,3.0,BJ,1726629867
89,pingdingshan,33.7385,113.3012,21.87,88,100,5.48,CN,1726629868
90,taltal,-25.4,-70.4833,16.07,63,0,0.47,CL,1726629869
91,irymple,-34.25,142.1667,25.61,12,0,4.92,AU,1726629871
92,port elizabeth,-33.918,25.5701,12.16,98,20,3.6,ZA,1726629667
93,mejit,10.2753,170.8646,28.73,73,12,5.85,MH,1726629873
94,longyearbyen,78.2186,15.6401,4.91,100,100,2.06,SJ,1726629874
95,talnakh,69.4865,88.3972,2.37,69,88,1.72,RU,1726629875
96,kailua-kona,19.6406,-155.9956,25.89,92,70,4.23,US,1726629876
97,nabire,-3.3667,135.4833,29.8,73,100,2.12,ID,1726629878
98,afaahiti,-17.75,-149.2833,24.34,86,100,4.28,PF,1726629879
99,dryden,49.7833,-92.7503,21.16,94,100,1.03,CA,1726629880
100,nadi,-17.8,177.4167,27.0,54,40,7.2,FJ,1726629881
101,flin flon,54.7682,-101.865,16.42,75,15,2.18,CA,1726629882
102,aykhal,66.0,111.5,-1.56,80,100,8.18,RU,1726629883
103,vadso,70.0744,29.7487,11.09,87,75,2.57,NO,1726629884
104,yellowknife,62.456,-114.3525,12.45,95,75,2.57,CA,1726629886
105,inarajan village,13.2736,144.7484,31.54,87,100,1.44,GU,1726629887
106,ar ruways,24.1103,52.7306,31.1,62,0,3.14,AE,1726629888
107,kibondo,-3.5864,30.7203,20.54,51,88,1.36,TZ,1726629889
108,minas de marcona,-15.2119,-75.1103,13.8,72,8,2.77,PE,1726629890
109,xiva,41.3783,60.3639,15.82,53,8,3.69,UZ,1726629616
110,yuzhno-kurilsk,44.0306,145.8556,21.37,56,0,5.73,RU,1726629893
111,vilyuchinsk,52.9306,158.4028,13.15,74,99,1.61,RU,1726629894
112,ati,13.2154,18.3353,27.57,68,83,3.24,TD,1726629895
113,matoury,4.8483,-52.3317,26.98,89,0,1.03,GF,1726629896
114,zheleznodorozhnyy,55.7503,38.0042,15.05,55,0,1.11,RU,1726629897
115,wotho,10.1657,166.0102,28.17,75,100,3.46,MH,1726629898
116,celestun,20.8667,-90.4,28.82,79,71,5.08,MX,1726629899
117,aasiaat,68.7098,-52.8699,-2.0,86,95,2.36,GL,1726629901
118,kapa'a,22.0752,-159.319,28.18,76,20,6.17,US,1726629813
119,pathein,16.7833,94.7333,28.05,83,100,3.86,MM,1726629903
120,antalaha,-14.9003,50.2788,20.06,85,23,2.61,MG,1726629904
121,meridian,43.6121,-116.3915,15.95,84,100,1.54,US,1726629878
122,kikwit,-5.041,18.8162,23.42,80,4,1.37,CD,1726629906
123,haiku-pauwela,20.9219,-156.3051,27.34,74,40,10.73,US,1726629907
124,mao,39.8885,4.2658,19.31,72,100,4.12,ES,1726629909
125,puerto cabezas,14.0351,-83.3888,26.62,92,100,1.97,NI,1726629910
126,kununurra,-15.7667,128.7333,29.7,33,100,7.34,AU,1726629911
127,port lincoln,-34.7333,135.8667,19.19,33,0,9.37,AU,1726629912
128,akureyri,65.6835,-18.0878,6.96,93,100,1.03,IS,1726629913
129,booneville,34.6582,-88.5667,19.45,83,4,1.87,US,1726629914
130,darwin,-12.4611,130.8418,30.95,56,100,5.59,AU,1726629916
131,remire-montjoly,4.9167,-52.2667,27.02,89,0,1.03,GF,1726629643
132,isafjordur,66.0755,-23.124,1.48,99,100,2.2,IS,1726629918
133,sandnessjoen,66.0217,12.6316,13.02,89,100,12.3,NO,1726629919
134,la'ie,21.6477,-157.9253,29.66,78,93,2.24,US,1726629920
135,newman,37.3138,-121.0208,21.13,57,100,2.33,US,1726629746
136,bay roberts,47.5999,-53.2648,16.62,96,64,3.49,CA,1726629922
137,amurzet,47.6967,131.0981,23.34,34,21,7.43,RU,1726629924
138,kilinochchi,9.3961,80.3982,30.84,61,48,5.72,LK,1726629925
139,galesong,-5.3166,119.3661,29.76,62,70,3.63,ID,1726629926
140,west island,-12.1568,96.8225,24.39,69,78,3.59,CC,1726629927
141,lerwick,60.1545,-1.1494,13.0,96,100,4.28,GB,1726629928
142,lihue,21.9789,-159.3672,27.77,73,20,6.17,US,1726629929
143,port hedland,-20.3167,118.5667,27.5,66,5,7.58,AU,1726629930
144,ilheus,-14.7889,-39.0494,20.89,84,8,0.94,BR,1726629932
145,lorengau,-2.0226,147.2712,29.18,81,21,5.4,PG,1726629933
146,santa ana,33.7456,-117.8678,19.86,71,0,3.09,US,1726629787
147,eldama ravine,0.0516,35.7308,13.2,81,85,0.91,KE,1726629935
148,tolanaro,-25.0319,46.9987,24.04,69,20,8.23,MG,1726629936
149,kangding,30.0513,101.9603,21.26,69,59,1.86,CN,1726629939
150,grand rapids,42.9634,-85.6681,17.81,75,0,1.54,US,1726629816
151,belmonte,-15.8631,-38.8828,21.69,85,8,1.16,BR,1726629941
152,east london,-33.0153,27.9116,14.52,82,0,3.6,ZA,1726629920
153,pico truncado,-46.7949,-67.9573,6.81,69,99,3.99,AR,1726629943
154,dudinka,69.4058,86.1778,3.53,72,99,4.09,RU,1726629944
155,thompson,55.7435,-97.8558,12.09,87,0,0.0,CA,1726629946
156,constantia,44.1833,28.65,17.61,69,3,7.96,RO,1726629947
157,rawson,-43.3002,-65.1023,13.16,38,0,3.6,AR,1726629746
158,vernon,50.2581,-119.2691,18.02,63,22,1.03,CA,1726629693
159,zahir pir,28.8124,70.524,31.67,44,0,4.91,PK,1726629950
160,jinjiang,24.8198,118.5741,32.53,51,2,6.05,CN,1726629951
161,broken hill,-31.95,141.4333,22.72,11,0,8.26,AU,1726629952
162,harlingen,26.1906,-97.6961,27.81,96,0,3.6,US,1726629954
163,port mathurin,-19.6833,63.4167,21.7,83,62,8.34,MU,1726629662
164,nikolayevka,53.1257,47.2041,8.48,56,9,1.08,RU,1726629956
165,alzamay,55.5562,98.6644,4.19,88,100,4.89,RU,1726629958
166,nizhniy odes,63.6445,54.856,10.92,64,88,1.98,RU,1726629959
167,klaksvik,62.2266,-6.589,13.25,87,78,11.83,FO,1726629962
168,ust'-barguzin,53.45,108.9833,5.55,77,95,4.26,RU,1726629963
169,mar del plata,-38.0023,-57.5575,15.29,82,0,4.63,AR,1726629720
170,pisco,-13.7,-76.2167,17.03,82,100,2.06,PE,1726629965
171,kolonia town,6.964,158.206,34.0,52,40,6.69,FM,1726629966
172,alupka,44.4167,34.05,19.51,85,36,1.35,UA,1726629968
173,kulattur,9.0167,78.2,31.1,49,41,5.83,IN,1726629969
174,presidente medici,-11.1753,-61.9014,31.04,35,75,1.64,BR,1726629970
175,la passe,45.5549,-0.8967,14.84,84,0,6.34,FR,1726629971
176,mount isa,-20.7333,139.5,22.6,50,100,5.96,AU,1726629972
177,yashkul',46.1711,45.3435,12.03,29,100,4.4,RU,1726629974
178,kone,-21.0595,164.8658,24.9,43,93,5.03,NC,1726629976
179,soto la marina,23.7667,-98.2167,26.1,89,9,2.52,MX,1726629977
180,touros,-5.1989,-35.4608,24.05,79,0,5.41,BR,1726629978
181,codrington,-38.2667,141.9667,16.83,51,0,11.1,AU,1726629979
182,olyokminsk,60.3736,120.4264,3.38,96,100,4.44,RU,1726629980
183,buta,2.7858,24.73,20.41,99,35,0.45,CD,1726629982
184,tommot,58.9564,126.2925,5.11,77,100,4.87,RU,1726629983
185,taro,-8.3862,115.28,28.91,39,82,2.35,ID,1726629984
186,ta`u,-14.2336,-169.5144,26.92,70,20,1.1,AS,1726629985
187,pasni,25.2631,63.471,26.62,86,0,4.48,PK,1726629986
188,hilo,19.7297,-155.09,25.61,95,100,1.54,US,1726629987
189,mahina,-17.5065,-149.489,27.87,74,0,3.09,PF,1726629988
190,pierre,44.3683,-100.351,29.04,54,0,11.32,US,1726629990
191,paragominas,-2.9667,-47.4833,25.01,71,4,2.34,BR,1726629991
192,uturoa,-16.7333,-151.4333,25.97,83,99,4.51,PF,1726629992
193,loukhi,66.0764,33.0381,7.75,93,62,3.03,RU,1726629993
194,machico,32.7,-16.7667,22.35,70,75,4.12,PT,1726629994
195,cabedelo,-6.9811,-34.8339,23.37,81,0,5.06,BR,1726629882
196,greymouth,-42.4667,171.2,5.96,94,100,2.24,NZ,1726629997
197,nizhnesortymskiy,62.4397,71.7603,12.98,92,85,5.71,RU,1726629998
198,lethem,3.3803,-59.7968,26.9,62,51,2.51,GY,1726629999
199,okha,53.5739,142.9478,9.56,75,100,6.82,RU,1726630000
200,chibougamau,49.9168,-74.3659,17.79,88,100,3.6,CA,1726630001
201,georgetown,5.4112,100.3354,31.96,76,20,2.57,MY,1726629924
202,bozdar wada,27.1828,68.636,29.69,59,0,5.53,PK,1726630005
203,tanjung pandan,-2.75,107.65,31.06,53,100,4.19,ID,1726630006
204,fomento,22.1039,-79.7217,24.59,96,43,1.01,CU,1726630007
205,nova sintra,14.8667,-24.7167,26.49,76,22,2.8,CV,1726630008
206,brisas de zicatela,15.8369,-97.0419,26.17,90,100,3.38,MX,1726630009
207,slave lake,55.2834,-114.769,12.99,76,20,2.06,CA,1726629857
208,broome,42.2506,-75.833,16.46,94,100,0.98,US,1726630012
209,namasuba,0.6894,32.4214,15.08,98,18,0.58,UG,1726630013
210,goya,-29.14,-59.2626,18.7,59,0,3.06,AR,1726630014
211,thetford-mines,46.0937,-71.3054,15.63,95,3,1.51,CA,1726630016
212,utmanzai,34.188,71.7629,26.51,49,0,1.64,PK,1726630017
213,san antonio de pale,-1.4014,5.6325,24.08,86,100,6.45,GQ,1726630019
214,taloqan,36.7361,69.5345,21.43,30,0,1.02,AF,1726630020
215,kodiak,57.79,-152.4072,11.73,76,75,4.63,US,1726630021
216,godhra,22.75,73.6333,24.79,84,100,2.38,IN,1726630022
217,ladario,-19.0047,-57.6017,25.27,48,7,0.27,BR,1726630023
218,alofi,-19.0595,-169.9187,21.94,94,100,4.12,NU,1726630024
219,puerto aysen,-45.4,-72.7,4.53,100,100,0.85,CL,1726630026
220,igrim,63.1906,64.4162,12.34,87,94,2.07,RU,1726630027
221,crane,31.3974,-102.3501,27.42,56,0,9.34,US,1726630028
222,malango,-2.9627,119.9001,29.07,50,100,1.96,ID,1726630029
223,callao,-12.0667,-77.15,16.16,82,100,2.57,PE,1726629281
224,rantauprapat,2.1,99.8333,28.68,67,100,0.48,ID,1726630033
225,mount horeb,43.0086,-89.7385,18.33,75,2,0.45,US,1726630034
226,soe,-9.8607,124.284,28.19,48,100,2.35,ID,1726630035
227,punta arenas,-53.15,-70.9167,0.06,80,0,8.75,CL,1726629823
228,zlocieniec,53.5329,16.0113,13.27,93,33,2.73,PL,1726630037
229,waingapu,-9.6567,120.2641,29.49,61,89,4.89,ID,1726630038
230,wiwili,13.6268,-85.8254,24.32,93,100,0.7,NI,1726630039
231,prince rupert,54.3161,-130.3201,12.83,92,75,4.12,CA,1726630042
232,alice springs,-23.7,133.8833,25.15,15,0,1.71,AU,1726630043
233,xilin hot,43.9667,116.0333,19.78,48,0,2.1,CN,1726630044
234,praia da vitoria,38.7333,-27.0667,22.14,78,75,4.28,PT,1726629852
235,inhambane,-23.865,35.3833,22.47,91,8,3.9,MZ,1726630046
236,fort st. john,56.2499,-120.8529,12.94,76,75,3.09,CA,1726630048
237,amga,60.8953,131.9608,3.82,95,100,2.88,RU,1726630049
238,kodinar,20.7903,70.7031,26.09,75,4,2.67,IN,1726630050
239,pyin oo lwin,22.0333,96.4667,24.58,80,96,0.5,MM,1726630051
240,labrador city,52.9463,-66.9114,12.88,77,100,4.92,CA,1726630052
241,sinabang,2.4803,96.3801,26.73,84,99,2.87,ID,1726630053
242,pontianak,-0.0333,109.3333,25.99,100,75,2.57,ID,1726630054
243,wingham,43.8879,-81.3114,13.45,65,6,3.19,CA,1726630056
244,stanley,54.868,-1.6985,7.01,100,55,0.0,GB,1726630057
245,turkmenbasy,40.0222,52.9552,17.43,51,0,3.09,TM,1726630058
246,suva,-18.1416,178.4415,24.71,61,75,3.6,FJ,1726629861
247,cabo san lucas,22.8909,-109.9124,24.31,66,20,6.71,MX,1726630060
248,new norfolk,-42.7826,147.0587,9.4,96,99,2.51,AU,1726630063
249,fortuna,40.5982,-124.1573,15.52,91,100,0.0,US,1726630064
250,bereznik,62.8551,42.7072,12.9,93,100,1.64,RU,1726630065
251,gislaved,57.3044,13.5408,11.17,67,10,1.41,SE,1726630066
252,saint croix,17.7397,-64.7388,27.2,83,0,2.57,VI,1726629859
253,sirte,31.2089,16.5887,26.6,76,75,9.3,LY,1726630068
254,teguise,29.0605,-13.564,18.12,73,0,1.03,ES,1726630069
255,badger,64.8,-147.5333,12.14,69,75,3.09,US,1726630072
256,tangalle,6.024,80.7911,29.15,70,33,6.13,LK,1726630073
257,otjimbingwe,-22.35,16.1333,14.02,36,0,0.7,NA,1726630074
258,hultsfred,57.4882,15.8436,9.94,89,15,1.0,SE,1726630075
259,claremore,36.3126,-95.6161,24.06,82,0,1.54,US,1726630076
260,onega,63.9061,38.1404,9.74,88,100,2.02,RU,1726630077
261,atafu village,-8.5421,-172.5159,28.2,68,100,5.44,TK,1726630079
262,lebanon,36.2081,-86.2911,22.03,78,100,2.57,US,1726629980
263,ancud,-41.8697,-73.8203,8.26,85,100,3.9,CL,1726630081
264,hotan,37.0997,79.9269,23.6,28,9,6.71,CN,1726630082
265,dauphin,51.1494,-100.0502,16.08,88,0,1.54,CA,1726630083
266,cockburn town,21.4612,-71.1419,29.15,73,31,9.34,TC,1726629939
267,nagqu,31.5,92.0,9.98,59,25,2.61,CN,1726630086
268,chaoyang,41.5703,120.4586,18.86,83,100,1.14,CN,1726630087
269,hopelchen,19.7667,-89.85,26.27,83,6,1.04,MX,1726630088
270,bocas del toro,9.3333,-82.25,28.02,81,100,3.01,PA,1726630089
271,nealtican,19.05,-98.4167,17.48,76,65,1.83,MX,1726629993
272,dazuocun,24.8862,118.9643,28.23,78,0,12.2,CN,1726630091
273,ayacucho,-13.1583,-74.2239,12.88,67,94,2.33,PE,1726630015
274,carutapera,-1.195,-46.02,25.51,78,0,4.52,BR,1726630094
275,mandalgovi,45.7625,106.2708,20.0,19,0,4.89,MN,1726630095
276,turpan,42.9333,89.1667,28.56,18,66,1.33,CN,1726630096
277,cadale,2.7603,46.3222,25.25,89,17,6.71,SO,1726630097
278,port macquarie,-31.4333,152.9167,22.26,56,0,1.79,AU,1726630098
279,margate,51.3813,1.3862,16.6,85,76,0.45,GB,1726630101
280,solnechnyy,50.7214,136.6319,12.37,53,94,1.04,RU,1726630102
281,nishinoomote,30.7333,131.0,30.31,84,75,6.69,JP,1726630103
282,guerrero negro,27.9769,-114.0611,18.76,69,19,8.54,MX,1726630104
283,rehoboth,-23.3167,17.0833,10.31,24,0,1.04,NA,1726630105
284,abu jibeha,11.4562,31.2285,22.1,95,100,1.72,SD,1726630106
285,kerikeri,-35.2268,173.9474,15.51,77,47,4.02,NZ,1726630108
286,invercargill,-46.4,168.35,12.79,74,81,3.58,NZ,1726630109
287,sydney,-33.8679,151.2073,26.32,19,0,1.34,AU,1726629330
288,assai,-23.3733,-50.8414,14.92,71,0,6.94,BR,1726630111
289,pangkalanbuun,-2.6833,111.6167,31.97,46,100,2.69,ID,1726630112
290,aldinga beach,-35.2793,138.4604,18.93,53,0,6.22,AU,1726630113
291,anna regina,7.2644,-58.5077,28.07,76,6,3.97,GY,1726630114
292,bom jesus,-9.0744,-44.3586,23.72,36,1,1.52,BR,1726630116
293,qinzhou,21.95,108.6167,30.09,73,91,4.62,CN,1726630117
294,salinopolis,-0.6136,-47.3561,26.45,77,0,6.35,BR,1726630118
295,gunjur,13.2019,-16.7339,24.04,100,40,1.03,GM,1726630119
296,torrevieja,37.9787,-0.6822,23.47,70,15,1.79,ES,1726630120
297,howrah,22.5892,88.3103,31.0,74,40,0.0,IN,1726630121
298,tucuma,-0.1833,-50.05,26.5,79,15,4.55,BR,1726630123
299,tadine,-21.55,167.8833,21.99,47,91,6.18,NC,1726630124
300,exu,-7.5119,-39.7242,21.47,53,0,1.92,BR,1726630125
301,ust-nera,64.5667,143.2,3.73,74,100,3.41,RU,1726630126
302,rabigh,22.7986,39.0349,29.53,67,100,0.23,SA,1726630127
303,happy valley-goose bay,53.3168,-60.3315,15.17,72,20,4.12,CA,1726630088
304,itoman,26.1247,127.6694,29.21,83,100,6.17,JP,1726630129
305,douz,33.4663,9.0203,23.26,58,50,3.83,TN,1726630131
306,honiton,50.7996,-3.189,12.93,92,16,3.63,GB,1726630132
307,bikin,46.8161,134.26,20.89,48,0,3.76,RU,1726630133
308,karasburg,-28.0167,18.75,11.15,49,0,2.37,NA,1726630134
309,farshut,26.0549,32.1633,25.84,39,0,3.03,EG,1726630135
310,fale old settlement,-9.3852,-171.2468,27.89,72,92,5.26,TK,1726630138
311,tual,-5.6667,132.75,27.24,79,100,5.35,ID,1726630139
312,kimovsk,53.9716,38.5319,12.33,66,33,2.9,RU,1726630140
313,pandan,14.0453,124.1694,26.09,88,100,5.75,PH,1726630141
314,kourou,5.1552,-52.6478,26.1,87,4,3.99,GF,1726630142
315,media luna,20.1419,-77.435,27.5,80,87,0.52,CU,1726630143
316,box elder,41.5005,-112.8764,15.74,48,84,3.37,US,1726630145
317,sokoni,-6.4333,39.55,24.73,77,3,4.42,TZ,1726630146
318,tema,5.667,-0.0166,25.23,88,100,3.6,GH,1726630148
319,antonio enes,-16.2325,39.9086,21.61,84,0,2.36,MZ,1726630150
320,muli,2.9167,73.5667,28.81,76,100,6.48,MV,1726630151
321,ak-dovurak,51.1833,90.6,3.84,47,0,0.44,RU,1726630152
322,xining,36.6167,101.7667,21.56,65,94,1.05,CN,1726630153
323,kearney,40.6995,-99.0815,25.95,69,0,9.26,US,1726630154
324,port isabel,26.0734,-97.2086,28.9,93,0,4.63,US,1726629962
325,lure,47.75,6.5,9.65,87,0,0.51,FR,1726630157
326,laojunmiao,39.8333,97.7333,18.17,64,23,2.69,CN,1726630158
327,ingeniero jacobacci,-41.3427,-69.5448,8.87,47,100,0.32,AR,1726630159
328,kavaratti,10.5669,72.642,27.72,77,57,7.6,IN,1726630160
329,tura,25.5198,90.2201,29.72,70,0,0.58,IN,1726630162
330,smithers,54.7804,-127.1743,12.18,82,20,2.06,CA,1726630164
331,taoudenni,22.6783,-3.9836,32.56,36,100,2.71,ML,1726630165
332,nizhneudinsk,54.9076,99.0276,6.6,61,98,4.12,RU,1726630166
333,betio village,1.358,172.9211,30.02,69,65,1.55,KI,1726630167
334,palmwoods,-26.6833,152.9667,24.93,57,6,3.36,AU,1726630168
335,yarmouth,41.7057,-70.2286,18.31,96,100,0.89,US,1726630169
336,kutum,14.2,24.6667,24.57,55,73,2.55,SD,1726630170
337,kuusamo,65.9667,29.1833,10.02,93,75,3.09,FI,1726630172
338,crescent city,41.756,-124.2018,15.27,98,100,3.6,US,1726630124
339,ceeldheer,3.8488,47.1806,24.69,90,30,6.18,SO,1726630174
340,pacific grove,36.6177,-121.9166,15.24,91,75,3.09,US,1726630175
341,kingsford,-33.924,151.2275,26.6,20,0,3.27,AU,1726630176
342,dalnegorsk,44.5604,135.5701,22.77,35,1,4.12,RU,1726630177
343,larne,54.85,-5.8167,10.9,94,52,2.46,GB,1726630179
344,krychaw,53.6945,31.7099,11.97,54,10,2.78,BY,1726630180
345,san patricio,28.017,-97.5169,27.97,75,0,5.0,US,1726630181
346,kargasok,59.0556,80.8572,10.75,89,100,3.64,RU,1726630182
347,guilin,25.2819,110.2864,32.06,58,33,3.88,CN,1726630183
348,washington,47.5001,-120.5015,20.22,51,100,3.12,US,1726630077
349,luis correia,-2.8792,-41.6669,25.03,77,2,7.39,BR,1726630185
350,susuman,62.7833,148.1667,7.8,45,84,4.4,RU,1726630187
351,noyemberyan,41.1724,44.9992,13.05,82,79,0.53,AM,1726630188
352,puerto deseado,-47.7503,-65.8938,5.6,67,100,5.18,AR,1726630189
353,westport,41.1415,-73.3579,18.44,89,95,0.89,US,1726630190
354,pariaman,-0.619,100.12,25.32,86,98,0.44,ID,1726630191
355,qamdo,31.1667,97.2333,14.91,51,6,2.1,CN,1726630192
356,itamaraju,-17.0392,-39.5311,20.54,93,78,0.62,BR,1726630193
357,palikir - national government center,6.9248,158.1611,33.41,52,40,6.69,FM,1726630195
358,pujehun,7.3581,-11.7208,22.98,97,47,0.14,SL,1726630196
359,kurchatov,51.6601,35.6521,14.99,42,100,3.86,RU,1726630197
360,sorsk,54.0033,90.2467,5.2,54,19,1.6,RU,1726630198
361,tulun,54.5611,100.5792,5.91,62,69,4.23,RU,1726630199
362,auki,-8.7676,160.7034,29.62,67,71,0.89,SB,1726630200
363,angicos,-5.6656,-36.6011,23.5,70,40,10.18,BR,1726629953
364,lae,-6.7221,146.9847,27.02,73,65,3.9,PG,1726630203
365,zabaykal'sk,49.6333,117.3167,14.6,39,80,1.44,RU,1726630204
366,mawu,34.4307,104.9176,17.78,78,87,3.1,CN,1726630205
367,yekaterinoslavka,50.3734,129.1139,14.11,28,41,7.2,RU,1726630206
368,okhotsk,59.3833,143.3,10.88,54,100,2.29,RU,1726630207
369,sarankhola,22.3082,89.7897,30.83,68,85,0.92,BD,1726630209
370,ain kercha,35.9247,6.6953,15.45,75,60,1.06,DZ,1726630210
371,trancoso,22.7333,-102.3667,19.98,77,91,1.75,MX,1726630211
372,aoulef,26.9667,1.0833,33.45,24,100,4.63,DZ,1726630212
373,yunguyo,-16.25,-69.0833,6.06,84,37,2.0,PE,1726630213
374,namibe,-15.1961,12.1522,17.69,90,64,2.95,AO,1726630214
375,faya-largeau,17.9257,19.1043,33.64,28,52,3.28,TD,1726630215
376,rabo de peixe,37.8,-25.5833,21.73,78,20,5.66,PT,1726630218
377,sur,22.5667,59.5289,32.71,47,0,2.21,OM,1726630219
378,miagao,10.6442,122.2352,28.64,80,97,6.14,PH,1726630220
379,weno,7.4515,151.8468,30.97,74,100,3.09,FM,1726630221
380,canchungo,12.0672,-16.0333,24.43,93,74,3.28,GW,1726630222
381,labytnangi,66.6572,66.4183,13.55,76,96,6.04,RU,1726630223
382,sayat,38.7839,63.8803,24.03,18,32,1.62,TM,1726630225
383,trairi,-3.2778,-39.2689,25.03,82,5,5.73,BR,1726630226
384,marinette,45.1,-87.6307,17.05,82,0,0.0,US,1726629993
385,rikaze,29.25,88.8833,16.5,33,17,0.68,CN,1726630229
386,richards bay,-28.783,32.0377,22.16,84,97,4.52,ZA,1726630231
387,fort mcmurray,56.7268,-111.381,16.77,59,100,3.6,CA,1726630232
388,avarua,-21.2078,-159.775,26.03,89,87,1.54,CK,1726630234
389,kayenta,36.7278,-110.2546,15.06,19,0,2.85,US,1726630236
390,cao bang,22.6667,106.25,30.43,75,46,1.84,VN,1726630237
391,manicore,-5.8092,-61.3003,28.47,31,0,1.8,BR,1726630238
392,gobo,33.8833,135.15,29.75,75,14,5.24,JP,1726630239
393,chake chake,-5.2459,39.7666,23.93,79,8,2.96,TZ,1726630240
394,albuquerque,35.0845,-106.6511,23.73,49,50,3.13,US,1726629987
395,urangan,-25.3,152.9,20.76,62,54,3.54,AU,1726630243
396,belyy yar,53.6039,91.3903,4.94,75,0,2.0,RU,1726630244
397,el calafate,-50.3408,-72.2768,0.66,78,15,1.43,AR,1726630245
398,maxixe,-23.8597,35.3472,22.09,93,9,3.23,MZ,1726630246
399,igarka,67.4667,86.5833,5.07,63,100,3.27,RU,1726630247
400,khash,28.2211,61.2158,26.76,20,0,0.7,IR,1726630248
401,rakops,-21.0167,24.3333,19.32,11,4,3.99,BW,1726630249
402,ugbokpo,7.6565,7.8664,22.58,96,100,0.29,NG,1726630251
403,geraldton,-28.7667,114.6,22.78,49,0,6.19,AU,1726630252
404,nouadhibou,20.931,-17.0347,21.99,78,25,5.14,MR,1726630253
405,khadan khak,30.7477,67.7085,22.84,24,0,2.8,PK,1726630254
406,sanchor,24.7553,71.7722,29.57,62,4,3.58,IN,1726630255
407,springbok,-29.6643,17.8865,5.48,54,2,1.74,ZA,1726630256
408,lobujya,27.95,86.8167,3.18,54,9,2.52,NP,1726630257
409,fendou,46.65,124.8667,23.25,35,2,4.51,CN,1726630259
410,merowe,18.4833,31.8167,33.11,27,52,3.59,SD,1726630260
411,zaragoza,41.6561,-0.8773,16.68,58,100,2.06,ES,1726630205
412,puerto armuelles,8.2833,-82.8667,27.83,79,77,3.58,PA,1726630251
413,revda,56.801,59.9303,13.11,84,25,3.09,RU,1726630263
414,flying fish cove,-10.4217,105.6791,26.1,67,96,6.9,CX,1726630266
415,madukkur,10.4833,79.4,31.75,49,98,4.53,IN,1726630267
416,nuevitas,21.5453,-77.2644,26.91,90,82,2.85,CU,1726630268
417,mariental,-24.6333,17.9667,12.76,20,0,1.52,NA,1726630269
418,tazovsky,67.4667,78.7,8.84,83,100,5.74,RU,1726630270
419,at taraf,25.3628,49.725,27.3,40,0,2.07,SA,1726630273
420,alaghsas,17.0187,8.0168,30.35,47,5,3.64,NE,1726630274
421,lepsy,46.235,78.9456,9.05,41,100,8.65,KZ,1726630275
422,eyl,7.9803,49.8164,27.43,63,25,8.36,SO,1726630276
423,sierpc,52.8568,19.6691,15.55,54,33,3.66,PL,1726630277
424,molde,62.7375,7.1591,11.91,87,75,2.57,NO,1726630279
425,marsa alam,25.0757,34.8918,29.04,50,4,7.52,EG,1726630280
426,wynyard,-41.0,145.7167,8.44,92,91,0.89,AU,1726630282
427,pemangkat,1.1667,108.9667,27.45,79,100,7.51,ID,1726630284
428,verkhnevilyuysk,63.4453,120.3167,5.43,69,100,3.88,RU,1726630285
429,tarawa,1.419,172.984,30.05,79,40,3.09,KI,1726630286
430,mega,4.05,38.3,14.82,86,92,6.69,ET,1726630287
431,hadibu,12.65,54.0333,25.92,81,85,6.15,YE,1726630289
432,arrifes,37.7667,-25.7,21.14,78,20,5.66,PT,1726630290
433,karratha,-20.7377,116.8463,32.18,24,9,7.02,AU,1726630291
434,pechora,65.1472,57.2244,11.91,93,100,2.78,RU,1726630292
435,medina,24.4686,39.6142,32.24,20,0,4.12,SA,1726630294
436,kulhudhuffushi,6.6221,73.07,28.04,78,73,6.65,MV,1726630295
437,alo,6.5486,4.2686,24.14,90,100,2.84,NG,1726630297
438,howard springs,-12.497,131.047,32.21,63,100,5.42,AU,1726630298
439,al bardiyah,31.7561,25.0865,24.86,57,1,3.15,LY,1726630299
440,ishikawa,26.4233,127.8214,29.18,90,40,8.23,JP,1726630300
441,antsiranana,-12.2787,49.2917,21.42,73,20,4.12,MG,1726630301
442,narvik,68.4384,17.4272,12.99,96,100,7.87,NO,1726630302
443,hakui,36.8833,136.7833,32.92,71,68,2.19,JP,1726630304
444,sabancuy,18.9667,-91.1833,28.74,80,31,3.13,MX,1726630305
445,mineros,-17.1167,-63.2333,23.24,52,5,2.07,BO,1726630306
446,vorkuta,67.5,64.0,9.23,82,71,5.04,RU,1726630307
447,cabinda,-5.55,12.2,24.08,88,100,1.54,AO,1726630308
448,bengkulu,-3.8004,102.2655,27.93,62,100,3.29,ID,1726630309
449,genhe,50.7833,121.5167,14.44,28,34,1.69,CN,1726630311
450,ciudad acuna,29.3232,-100.9522,29.16,58,0,3.09,MX,1726630275
451,kerman,30.2832,57.0788,17.92,36,0,2.06,IR,1726630194
452,santana,-0.0583,-51.1817,29.1,79,75,5.14,BR,1726630314
453,yatou,37.15,122.3833,26.98,87,100,3.36,CN,1726630315
454,ribeira brava,32.65,-17.0667,22.35,63,53,2.42,PT,1726630316
455,puerto baquerizo moreno,-0.9,-89.6,20.95,82,81,6.05,EC,1726630317
456,rotterdam,51.9225,4.4792,14.95,93,57,4.63,NL,1726630160
457,viveiro,43.6623,-7.5934,16.72,88,25,7.07,ES,1726630321
458,kathmandu,27.7167,85.3167,25.12,73,20,1.03,NP,1726629947
459,inyonga,-6.7167,32.0667,18.72,53,13,1.79,TZ,1726630324
460,port alfred,-33.5906,26.891,11.77,94,12,0.89,ZA,1726630326
461,gillette,44.2911,-105.5022,12.51,91,75,3.58,US,1726630327
462,boguchany,58.3814,97.4531,6.04,97,100,2.25,RU,1726630328
463,beau vallon,-20.4189,57.6953,21.13,78,40,3.6,MU,1726630330
464,saint-francois,46.4154,3.9054,9.26,100,20,0.0,FR,1726630331
465,kashin,57.3592,37.6081,12.75,71,29,1.94,RU,1726630333
466,sorong,-0.8833,131.25,29.08,76,100,3.86,ID,1726630334
467,carmen,18.6333,-91.8333,29.02,74,75,2.06,MX,1726630321
468,nova xavantina,-14.6667,-52.35,28.07,31,0,0.99,BR,1726630336
469,emerald,-23.5333,148.1667,26.3,30,3,3.56,AU,1726630337
470,beboto,8.2668,16.939,22.09,96,84,1.34,TD,1726630338
471,capao da canoa,-29.7456,-50.0097,16.58,84,27,6.87,BR,1726630136
472,havre,49.5833,0.3333,13.87,94,16,5.14,FR,1726630341
473,bridlington,54.0831,-0.1919,10.96,85,15,2.98,GB,1726630342
474,eaglehawk,-36.7333,144.25,21.43,28,0,2.24,AU,1726630343
475,wuwei,37.9281,102.6414,22.73,62,26,2.28,CN,1726630344
476,al kharj,24.155,47.3346,27.32,28,0,2.47,SA,1726630345
477,bubaque,11.2833,-15.8333,26.71,83,100,7.84,GW,1726630346
478,beruniy,41.6911,60.7525,11.98,62,7,3.09,UZ,1726630348
479,driefontein,-27.0177,30.4498,13.18,74,61,1.78,ZA,1726630123
480,saint-philippe,-21.3585,55.7679,21.1,82,59,4.35,RE,1726630350
481,severo-yeniseyskiy,60.3725,93.0408,6.51,75,91,2.85,RU,1726630351
482,antofagasta,-23.65,-70.4,12.6,67,18,3.39,CL,1726629867
483,quellon,-43.1167,-73.6167,7.81,93,100,3.39,CL,1726630353
484,jeddah,21.5169,39.2192,30.92,66,40,5.14,SA,1726630354
485,nisa,43.7031,7.2661,18.37,70,75,5.14,FR,1726630356
486,jumla,29.2747,82.1838,19.55,54,95,1.55,NP,1726630357
487,dharampuri,22.1667,75.35,25.65,78,100,4.4,IN,1726630358
488,ust'-ilimsk,58.0006,102.6619,3.09,98,100,3.98,RU,1726630359
489,huarmey,-10.0681,-78.1522,16.95,84,29,2.74,PE,1726630360
490,cheria,35.2731,7.7519,15.39,72,31,1.05,DZ,1726630361
491,urengoy,65.9667,78.3667,11.15,98,100,5.28,RU,1726630363
492,grand falls-windsor,48.9332,-55.6649,16.95,92,100,2.02,CA,1726630364
493,acarau,-2.8856,-40.12,25.08,81,3,7.89,BR,1726630365
494,noshiro,40.2039,140.0242,23.46,50,98,2.94,JP,1726630366
495,shurugwi,-19.6702,30.0059,15.52,43,0,3.66,ZW,1726630367
496,kattivakkam,13.2167,80.3167,32.3,65,2,2.63,IN,1726630368
497,chippewa falls,44.9369,-91.3929,24.1,66,0,4.12,US,1726630369
498,conception bay south,47.4999,-52.9981,17.63,92,72,3.11,CA,1726630371
499,al quwayrah,29.8004,35.3116,16.77,69,0,1.32,JO,1726630372
500,ponta delgada,37.7333,-25.6667,22.4,78,20,5.66,PT,1726630373
501,sarkand,45.41,79.9186,9.9,34,100,2.53,KZ,1726630374
502,bagayevskaya,47.32,40.38,18.32,37,100,7.22,RU,1726630375
503,tubarjal,30.4999,38.216,20.92,51,0,5.57,SA,1726630376
504,freetown,8.484,-13.2299,25.84,89,75,6.17,SL,1726630183
505,landau in der pfalz,49.2075,8.1133,15.72,83,6,4.12,DE,1726630379
506,bang phae,13.6916,99.9298,26.26,87,100,2.46,TH,1726630380
507,dunedin,-45.8742,170.5036,12.24,67,73,1.43,NZ,1726630381
508,kirakira,-10.4544,161.9205,28.36,78,94,4.98,SB,1726630382
509,robertsport,6.7533,-11.3686,25.16,86,35,1.34,LR,1726630383
510,katabu,-4.9333,122.5167,34.94,39,100,0.56,ID,1726630384
511,kwang binh,17.4833,106.6,27.94,84,100,3.96,VN,1726630386
512,tomatlan,19.9333,-105.25,23.7,91,84,0.58,MX,1726630387
513,jatiroto,-7.8833,111.1167,30.38,37,91,5.86,ID,1726630388
514,nikopol,47.5712,34.3964,17.8,61,100,12.28,UA,1726630389
515,tsumeb,-19.2333,17.7167,20.27,10,1,6.1,NA,1726630391
516,belokurikha,51.9959,84.9896,8.81,53,0,2.61,RU,1726630393
517,aweil,8.7682,27.4002,21.45,95,91,1.29,SS,1726630394
518,krasnovishersk,60.4078,57.082,13.53,88,79,0.72,RU,1726630395
519,salekhard,66.53,66.6019,13.91,74,98,7.3,RU,1726630396
520,zaraza,9.3503,-65.3245,24.45,86,4,1.03,VE,1726630397
521,port-vila,-17.7338,168.3219,25.78,47,20,6.17,VU,1726630401
522,mpulungu,-8.7623,31.1141,23.26,48,2,2.61,ZM,1726630402
523,phek,25.6667,94.5,29.32,53,38,0.45,IN,1726630403
524,belen,36.4891,36.2233,19.08,83,40,1.54,TR,1726630405
525,utiel,39.5667,-1.2,14.46,94,17,2.45,ES,1726630406
526,takoradi,4.8845,-1.7554,24.08,88,100,3.58,GH,1726630407
527,fada,7.25,4.0667,22.16,99,100,0.5,NG,1726630408
528,hobyo,5.3505,48.5268,25.79,82,18,8.48,SO,1726630409
529,mangrol,21.1167,70.1167,27.01,72,2,2.87,IN,1726630410
530,sedalia,38.7045,-93.2283,23.84,64,0,3.13,US,1726630260
531,northfield,44.4583,-93.1616,24.08,66,0,4.12,US,1726630413
532,rio grande,-32.035,-52.0986,16.08,86,77,8.23,BR,1726630349
533,kem',64.9555,34.5793,9.06,91,78,3.66,RU,1726630415
534,kaplice,48.7385,14.4963,13.93,97,33,1.75,CZ,1726630416
535,zhongxing,33.7039,118.6792,30.43,66,29,4.44,CN,1726630417
536,san jose de feliciano,-30.3845,-58.7517,15.91,75,16,4.37,AR,1726630418
537,angra do heroismo,38.65,-27.2167,22.34,82,75,3.18,PT,1726630290
538,smara,26.7384,-11.6719,21.86,66,100,2.14,EH,1726630421
539,hojo,33.9766,132.7777,30.96,74,20,3.6,JP,1726630422
540,shingu,33.7333,135.9833,32.46,59,15,5.75,JP,1726630423
541,natal,-5.795,-35.2094,24.36,78,75,5.14,BR,1726630069
542,siirt,37.9326,41.9403,20.54,46,0,1.12,TR,1726630425
543,lagos,6.5833,3.75,23.73,93,100,2.33,NG,1726630297
544,nyurba,63.2842,118.3319,4.81,79,98,3.85,RU,1726630428
545,springfield,37.2153,-93.2982,22.16,81,0,3.6,US,1726629856
546,kilindoni,-7.9139,39.6668,24.97,74,9,4.37,TZ,1726630430
547,crookston,47.7741,-96.6081,24.06,64,0,4.12,US,1726630431
548,khark,29.2614,50.3306,30.01,74,0,2.06,IR,1726630432
549,jamiltepec,16.2833,-97.8167,22.29,100,100,1.48,MX,1726630433
550,tuni,17.35,82.55,31.35,59,8,0.99,IN,1726630435
551,zhezkent,50.9311,81.3615,9.16,47,0,8.08,KZ,1726630436
552,mamedkala,42.1677,48.1199,20.37,55,100,2.58,RU,1726630437
553,juan griego,11.0817,-63.9655,20.07,100,74,2.06,VE,1726630438
554,akrehamn,59.2667,5.1833,11.14,87,65,2.57,NO,1726630439
555,bamboo flat,11.7,92.7167,29.05,84,100,3.6,IN,1726630440
556,ampanihy,-24.7,44.75,20.14,84,93,2.74,MG,1726630441
557,malakal,9.5334,31.6605,22.53,88,100,1.77,SS,1726630443
558,sault ste. marie,46.5168,-84.3333,18.16,72,0,2.06,CA,1726630263
